$GPGGA,023458.236,5232.098,N,01322.294,E,1,12,1.0,0.0,M,0.0,M,,*6B
$GPGSA,A,3,01,02,03,04,05,06,07,08,09,10,11,12,1.0,1.0,1.0*30
$GPRMC,023458.236,A,5232.098,N,01322.294,E,143.6,121.4,050221,000.0,W*7D
$GPGGA,023459.236,5232.070,N,01322.340,E,1,12,1.0,0.0,M,0.0,M,,*64
$GPGSA,A,3,01,02,03,04,05,06,07,08,09,10,11,12,1.0,1.0,1.0*30
$GPRMC,023459.236,A,5232.070,N,01322.340,E,121.5,033.2,050221,000.0,W*71
$GPGGA,023500.236,5232.101,N,01322.361,E,1,12,1.0,0.0,M,0.0,M,,*6D
$GPGSA,A,3,01,02,03,04,05,06,07,08,09,10,11,12,1.0,1.0,1.0*30
$GPRMC,023500.236,A,5232.101,N,01322.361,E,072.3,307.4,050221,000.0,W*7B
$GPGGA,023501.236,5232.117,N,01322.340,E,1,12,1.0,0.0,M,0.0,M,,*68
$GPGSA,A,3,01,02,03,04,05,06,07,08,09,10,11,12,1.0,1.0,1.0*30
$GPRMC,023501.236,A,5232.117,N,01322.340,E,081.4,292.2,050221,000.0,W*7E
$GPGGA,023502.236,5232.129,N,01322.309,E,1,12,1.0,0.0,M,0.0,M,,*6B
$GPGSA,A,3,01,02,03,04,05,06,07,08,09,10,11,12,1.0,1.0,1.0*30
$GPRMC,023502.236,A,5232.129,N,01322.309,E,093.1,261.3,050221,000.0,W*76
$GPGGA,023503.236,5232.123,N,01322.268,E,1,12,1.0,0.0,M,0.0,M,,*66
$GPGSA,A,3,01,02,03,04,05,06,07,08,09,10,11,12,1.0,1.0,1.0*30
$GPRMC,023503.236,A,5232.123,N,01322.268,E,270.8,180.0,050221,000.0,W*72
$GPGGA,023504.236,5232.048,N,01322.268,E,1,12,1.0,0.0,M,0.0,M,,*6D
$GPGSA,A,3,01,02,03,04,05,06,07,08,09,10,11,12,1.0,1.0,1.0*30
$GPRMC,023504.236,A,5232.048,N,01322.268,E,203.1,000.0,050221,000.0,W*7D
$GPGGA,023505.236,5232.104,N,01322.268,E,1,12,1.0,0.0,M,0.0,M,,*65
$GPGSA,A,3,01,02,03,04,05,06,07,08,09,10,11,12,1.0,1.0,1.0*30
$GPRMC,023505.236,A,5232.104,N,01322.268,E,203.1,000.0,050221,000.0,W*75
$GPGGA,023506.236,5232.104,N,01322.268,E,1,12,1.0,0.0,M,0.0,M,,*66
$GPGSA,A,3,01,02,03,04,05,06,07,08,09,10,11,12,1.0,1.0,1.0*30
$GPRMC,023506.236,A,5232.104,N,01322.268,E,031.9,238.6,050221,000.0,W*72
$GPGGA,023507.236,5232.098,N,01322.258,E,1,12,1.0,0.0,M,0.0,M,,*60
$GPGSA,A,3,01,02,03,04,05,06,07,08,09,10,11,12,1.0,1.0,1.0*30
$GPRMC,023507.236,A,5232.098,N,01322.258,E,104.0,125.5,050221,000.0,W*76
$GPGGA,023508.236,5232.076,N,01322.289,E,1,12,1.0,0.0,M,0.0,M,,*63
$GPGSA,A,3,01,02,03,04,05,06,07,08,09,10,11,12,1.0,1.0,1.0*30
$GPRMC,023508.236,A,5232.076,N,01322.289,E,025.2,140.7,050221,000.0,W*74
$GPGGA,023509.236,5232.070,N,01322.294,E,1,12,1.0,0.0,M,0.0,M,,*68
$GPGSA,A,3,01,02,03,04,05,06,07,08,09,10,11,12,1.0,1.0,1.0*30
$GPRMC,023509.236,A,5232.070,N,01322.294,E,050.5,107.0,050221,000.0,W*7E
$GPGGA,023510.236,5232.064,N,01322.314,E,1,12,1.0,0.0,M,0.0,M,,*6C
$GPGSA,A,3,01,02,03,04,05,06,07,08,09,10,11,12,1.0,1.0,1.0*30
$GPRMC,023510.236,A,5232.064,N,01322.314,E,112.8,000.0,050221,000.0,W*76
$GPGGA,023511.236,5232.095,N,01322.314,E,1,12,1.0,0.0,M,0.0,M,,*63
$GPGSA,A,3,01,02,03,04,05,06,07,08,09,10,11,12,1.0,1.0,1.0*30
$GPRMC,023511.236,A,5232.095,N,01322.314,E,112.8,000.0,050221,000.0,W*79
$GPGGA,023512.236,5232.095,N,01322.314,E,1,12,1.0,0.0,M,0.0,M,,*60
$GPGSA,A,3,01,02,03,04,05,06,07,08,09,10,11,12,1.0,1.0,1.0*30
$GPRMC,023512.236,A,5232.095,N,01322.314,E,033.9,270.0,050221,000.0,W*7C
$GPGGA,023513.236,5232.095,N,01322.299,E,1,12,1.0,0.0,M,0.0,M,,*65
$GPGSA,A,3,01,02,03,04,05,06,07,08,09,10,11,12,1.0,1.0,1.0*30
$GPRMC,023513.236,A,5232.095,N,01322.299,E,033.9,000.0,050221,000.0,W*7C
$GPGGA,023514.236,5232.095,N,01322.299,E,1,12,1.0,0.0,M,0.0,M,,*62
$GPGSA,A,3,01,02,03,04,05,06,07,08,09,10,11,12,1.0,1.0,1.0*30
$GPRMC,023514.236,A,5232.095,N,01322.299,E,000.0,000.0,050221,000.0,W*72
$GPGGA,023515.236,5232.095,N,01322.299,E,1,12,1.0,0.0,M,0.0,M,,*63
$GPGSA,A,3,01,02,03,04,05,06,07,08,09,10,11,12,1.0,1.0,1.0*30
$GPRMC,023515.236,A,5232.095,N,01322.299,E,000.0,000.0,050221,000.0,W*73
$GPGGA,023516.236,5232.095,N,01322.299,E,1,12,1.0,0.0,M,0.0,M,,*60
$GPGSA,A,3,01,02,03,04,05,06,07,08,09,10,11,12,1.0,1.0,1.0*30
$GPRMC,023516.236,A,5232.095,N,01322.299,E,000.0,000.0,050221,000.0,W*70
$GPGGA,023517.236,5232.095,N,01322.299,E,1,12,1.0,0.0,M,0.0,M,,*61
$GPGSA,A,3,01,02,03,04,05,06,07,08,09,10,11,12,1.0,1.0,1.0*30
$GPRMC,023517.236,A,5232.095,N,01322.299,E,000.0,000.0,050221,000.0,W*71
$GPGGA,023518.236,5232.095,N,01322.299,E,1,12,1.0,0.0,M,0.0,M,,*6E
$GPGSA,A,3,01,02,03,04,05,06,07,08,09,10,11,12,1.0,1.0,1.0*30
$GPRMC,023518.236,A,5232.095,N,01322.299,E,000.0,000.0,050221,000.0,W*7E
$GPGGA,023519.236,5232.095,N,01322.299,E,1,12,1.0,0.0,M,0.0,M,,*6F
$GPGSA,A,3,01,02,03,04,05,06,07,08,09,10,11,12,1.0,1.0,1.0*30
$GPRMC,023519.236,A,5232.095,N,01322.299,E,000.0,000.0,050221,000.0,W*7F
$GPGGA,023520.236,5232.095,N,01322.299,E,1,12,1.0,0.0,M,0.0,M,,*65
$GPGSA,A,3,01,02,03,04,05,06,07,08,09,10,11,12,1.0,1.0,1.0*30
$GPRMC,023520.236,A,5232.095,N,01322.299,E,000.0,000.0,050221,000.0,W*75
$GPGGA,023521.236,5232.095,N,01322.299,E,1,12,1.0,0.0,M,0.0,M,,*64
$GPGSA,A,3,01,02,03,04,05,06,07,08,09,10,11,12,1.0,1.0,1.0*30
$GPRMC,023521.236,A,5232.095,N,01322.299,E,000.0,000.0,050221,000.0,W*74
$GPGGA,023522.236,5232.095,N,01322.299,E,1,12,1.0,0.0,M,0.0,M,,*67
$GPGSA,A,3,01,02,03,04,05,06,07,08,09,10,11,12,1.0,1.0,1.0*30
$GPRMC,023522.236,A,5232.095,N,01322.299,E,000.0,000.0,050221,000.0,W*77
$GPGGA,023523.236,5232.095,N,01322.299,E,1,12,1.0,0.0,M,0.0,M,,*66
$GPGSA,A,3,01,02,03,04,05,06,07,08,09,10,11,12,1.0,1.0,1.0*30
$GPRMC,023523.236,A,5232.095,N,01322.299,E,000.0,000.0,050221,000.0,W*76
$GPGGA,023524.236,5232.095,N,01322.299,E,1,12,1.0,0.0,M,0.0,M,,*61
$GPGSA,A,3,01,02,03,04,05,06,07,08,09,10,11,12,1.0,1.0,1.0*30
$GPRMC,023524.236,A,5232.095,N,01322.299,E,000.0,000.0,050221,000.0,W*71
$GPGGA,023525.236,5232.095,N,01322.299,E,1,12,1.0,0.0,M,0.0,M,,*60
$GPGSA,A,3,01,02,03,04,05,06,07,08,09,10,11,12,1.0,1.0,1.0*30
$GPRMC,023525.236,A,5232.095,N,01322.299,E,000.0,000.0,050221,000.0,W*70
$GPGGA,023526.236,5232.095,N,01322.299,E,1,12,1.0,0.0,M,0.0,M,,*63
$GPGSA,A,3,01,02,03,04,05,06,07,08,09,10,11,12,1.0,1.0,1.0*30
$GPRMC,023526.236,A,5232.095,N,01322.299,E,000.0,000.0,050221,000.0,W*73
$GPGGA,023527.236,5232.095,N,01322.299,E,1,12,1.0,0.0,M,0.0,M,,*62
$GPGSA,A,3,01,02,03,04,05,06,07,08,09,10,11,12,1.0,1.0,1.0*30
$GPRMC,023527.236,A,5232.095,N,01322.299,E,000.0,000.0,050221,000.0,W*72
$GPGGA,023528.236,5232.095,N,01322.299,E,1,12,1.0,0.0,M,0.0,M,,*6D
$GPGSA,A,3,01,02,03,04,05,06,07,08,09,10,11,12,1.0,1.0,1.0*30
$GPRMC,023528.236,A,5232.095,N,01322.299,E,000.0,000.0,050221,000.0,W*7D
$GPGGA,023529.236,5232.095,N,01322.299,E,1,12,1.0,0.0,M,0.0,M,,*6C
$GPGSA,A,3,01,02,03,04,05,06,07,08,09,10,11,12,1.0,1.0,1.0*30
$GPRMC,023529.236,A,5232.095,N,01322.299,E,000.0,000.0,050221,000.0,W*7C
$GPGGA,023530.236,5232.095,N,01322.299,E,1,12,1.0,0.0,M,0.0,M,,*64
$GPGSA,A,3,01,02,03,04,05,06,07,08,09,10,11,12,1.0,1.0,1.0*30
$GPRMC,023530.236,A,5232.095,N,01322.299,E,000.0,000.0,050221,000.0,W*74
$GPGGA,023531.236,5232.095,N,01322.299,E,1,12,1.0,0.0,M,0.0,M,,*65
$GPGSA,A,3,01,02,03,04,05,06,07,08,09,10,11,12,1.0,1.0,1.0*30
$GPRMC,023531.236,A,5232.095,N,01322.299,E,000.0,000.0,050221,000.0,W*75
$GPGGA,023532.236,5232.095,N,01322.299,E,1,12,1.0,0.0,M,0.0,M,,*66
$GPGSA,A,3,01,02,03,04,05,06,07,08,09,10,11,12,1.0,1.0,1.0*30
$GPRMC,023532.236,A,5232.095,N,01322.299,E,000.0,000.0,050221,000.0,W*76
$GPGGA,023533.236,5232.095,N,01322.299,E,1,12,1.0,0.0,M,0.0,M,,*67
$GPGSA,A,3,01,02,03,04,05,06,07,08,09,10,11,12,1.0,1.0,1.0*30
$GPRMC,023533.236,A,5232.095,N,01322.299,E,000.0,000.0,050221,000.0,W*77
$GPGGA,023534.236,5232.095,N,01322.299,E,1,12,1.0,0.0,M,0.0,M,,*60
$GPGSA,A,3,01,02,03,04,05,06,07,08,09,10,11,12,1.0,1.0,1.0*30
$GPRMC,023534.236,A,5232.095,N,01322.299,E,000.0,000.0,050221,000.0,W*70
$GPGGA,023535.236,5232.095,N,01322.299,E,1,12,1.0,0.0,M,0.0,M,,*61
$GPGSA,A,3,01,02,03,04,05,06,07,08,09,10,11,12,1.0,1.0,1.0*30
$GPRMC,023535.236,A,5232.095,N,01322.299,E,000.0,000.0,050221,000.0,W*71
$GPGGA,023536.236,5232.095,N,01322.299,E,1,12,1.0,0.0,M,0.0,M,,*62
$GPGSA,A,3,01,02,03,04,05,06,07,08,09,10,11,12,1.0,1.0,1.0*30
$GPRMC,023536.236,A,5232.095,N,01322.299,E,000.0,000.0,050221,000.0,W*72
$GPGGA,023537.236,5232.095,N,01322.299,E,1,12,1.0,0.0,M,0.0,M,,*63
$GPGSA,A,3,01,02,03,04,05,06,07,08,09,10,11,12,1.0,1.0,1.0*30
$GPRMC,023537.236,A,5232.095,N,01322.299,E,000.0,000.0,050221,000.0,W*73
$GPGGA,023538.236,5232.095,N,01322.299,E,1,12,1.0,0.0,M,0.0,M,,*6C
$GPGSA,A,3,01,02,03,04,05,06,07,08,09,10,11,12,1.0,1.0,1.0*30
$GPRMC,023538.236,A,5232.095,N,01322.299,E,000.0,000.0,050221,000.0,W*7C
$GPGGA,023539.236,5232.095,N,01322.299,E,1,12,1.0,0.0,M,0.0,M,,*6D
$GPGSA,A,3,01,02,03,04,05,06,07,08,09,10,11,12,1.0,1.0,1.0*30
$GPRMC,023539.236,A,5232.095,N,01322.299,E,000.0,000.0,050221,000.0,W*7D
$GPGGA,023540.236,5232.095,N,01322.299,E,1,12,1.0,0.0,M,0.0,M,,*63
$GPGSA,A,3,01,02,03,04,05,06,07,08,09,10,11,12,1.0,1.0,1.0*30
$GPRMC,023540.236,A,5232.095,N,01322.299,E,000.0,000.0,050221,000.0,W*73
$GPGGA,023541.236,5232.095,N,01322.299,E,1,12,1.0,0.0,M,0.0,M,,*62
$GPGSA,A,3,01,02,03,04,05,06,07,08,09,10,11,12,1.0,1.0,1.0*30
$GPRMC,023541.236,A,5232.095,N,01322.299,E,000.0,000.0,050221,000.0,W*72
$GPGGA,023542.236,5232.095,N,01322.299,E,1,12,1.0,0.0,M,0.0,M,,*61
$GPGSA,A,3,01,02,03,04,05,06,07,08,09,10,11,12,1.0,1.0,1.0*30
$GPRMC,023542.236,A,5232.095,N,01322.299,E,000.0,000.0,050221,000.0,W*71
$GPGGA,023543.236,5232.095,N,01322.299,E,1,12,1.0,0.0,M,0.0,M,,*60
$GPGSA,A,3,01,02,03,04,05,06,07,08,09,10,11,12,1.0,1.0,1.0*30
$GPRMC,023543.236,A,5232.095,N,01322.299,E,000.0,000.0,050221,000.0,W*70
$GPGGA,023544.236,5232.095,N,01322.299,E,1,12,1.0,0.0,M,0.0,M,,*67
$GPGSA,A,3,01,02,03,04,05,06,07,08,09,10,11,12,1.0,1.0,1.0*30
$GPRMC,023544.236,A,5232.095,N,01322.299,E,000.0,000.0,050221,000.0,W*77
$GPGGA,023545.236,5232.095,N,01322.299,E,1,12,1.0,0.0,M,0.0,M,,*66
$GPGSA,A,3,01,02,03,04,05,06,07,08,09,10,11,12,1.0,1.0,1.0*30
$GPRMC,023545.236,A,5232.095,N,01322.299,E,000.0,000.0,050221,000.0,W*76
$GPGGA,023546.236,5232.095,N,01322.299,E,1,12,1.0,0.0,M,0.0,M,,*65
$GPGSA,A,3,01,02,03,04,05,06,07,08,09,10,11,12,1.0,1.0,1.0*30
$GPRMC,023546.236,A,5232.095,N,01322.299,E,000.0,000.0,050221,000.0,W*75
$GPGGA,023547.236,5232.095,N,01322.299,E,1,12,1.0,0.0,M,0.0,M,,*64
$GPGSA,A,3,01,02,03,04,05,06,07,08,09,10,11,12,1.0,1.0,1.0*30
$GPRMC,023547.236,A,5232.095,N,01322.299,E,000.0,000.0,050221,000.0,W*74
$GPGGA,023548.236,5232.095,N,01322.299,E,1,12,1.0,0.0,M,0.0,M,,*6B
$GPGSA,A,3,01,02,03,04,05,06,07,08,09,10,11,12,1.0,1.0,1.0*30
$GPRMC,023548.236,A,5232.095,N,01322.299,E,000.0,000.0,050221,000.0,W*7B
$GPGGA,023549.236,5232.095,N,01322.299,E,1,12,1.0,0.0,M,0.0,M,,*6A
$GPGSA,A,3,01,02,03,04,05,06,07,08,09,10,11,12,1.0,1.0,1.0*30
$GPRMC,023549.236,A,5232.095,N,01322.299,E,000.0,000.0,050221,000.0,W*7A
$GPGGA,023550.236,5232.095,N,01322.299,E,1,12,1.0,0.0,M,0.0,M,,*62
$GPGSA,A,3,01,02,03,04,05,06,07,08,09,10,11,12,1.0,1.0,1.0*30
$GPRMC,023550.236,A,5232.095,N,01322.299,E,000.0,000.0,050221,000.0,W*72
$GPGGA,023551.236,5232.095,N,01322.299,E,1,12,1.0,0.0,M,0.0,M,,*63
$GPGSA,A,3,01,02,03,04,05,06,07,08,09,10,11,12,1.0,1.0,1.0*30
$GPRMC,023551.236,A,5232.095,N,01322.299,E,000.0,000.0,050221,000.0,W*73
$GPGGA,023552.236,5232.095,N,01322.299,E,1,12,1.0,0.0,M,0.0,M,,*60
$GPGSA,A,3,01,02,03,04,05,06,07,08,09,10,11,12,1.0,1.0,1.0*30
$GPRMC,023552.236,A,5232.095,N,01322.299,E,000.0,000.0,050221,000.0,W*70
$GPGGA,023553.236,5232.095,N,01322.299,E,1,12,1.0,0.0,M,0.0,M,,*61
$GPGSA,A,3,01,02,03,04,05,06,07,08,09,10,11,12,1.0,1.0,1.0*30
$GPRMC,023553.236,A,5232.095,N,01322.299,E,000.0,000.0,050221,000.0,W*71
$GPGGA,023554.236,5232.095,N,01322.299,E,1,12,1.0,0.0,M,0.0,M,,*66
$GPGSA,A,3,01,02,03,04,05,06,07,08,09,10,11,12,1.0,1.0,1.0*30
$GPRMC,023554.236,A,5232.095,N,01322.299,E,000.0,000.0,050221,000.0,W*76
$GPGGA,023555.236,5232.095,N,01322.299,E,1,12,1.0,0.0,M,0.0,M,,*67
$GPGSA,A,3,01,02,03,04,05,06,07,08,09,10,11,12,1.0,1.0,1.0*30
$GPRMC,023555.236,A,5232.095,N,01322.299,E,000.0,000.0,050221,000.0,W*77
$GPGGA,023556.236,5232.095,N,01322.299,E,1,12,1.0,0.0,M,0.0,M,,*64
$GPGSA,A,3,01,02,03,04,05,06,07,08,09,10,11,12,1.0,1.0,1.0*30
$GPRMC,023556.236,A,5232.095,N,01322.299,E,000.0,000.0,050221,000.0,W*74
$GPGGA,023557.236,5232.095,N,01322.299,E,1,12,1.0,0.0,M,0.0,M,,*65
$GPGSA,A,3,01,02,03,04,05,06,07,08,09,10,11,12,1.0,1.0,1.0*30
$GPRMC,023557.236,A,5232.095,N,01322.299,E,000.0,000.0,050221,000.0,W*75
$GPGGA,023558.236,5232.095,N,01322.299,E,1,12,1.0,0.0,M,0.0,M,,*6A
$GPGSA,A,3,01,02,03,04,05,06,07,08,09,10,11,12,1.0,1.0,1.0*30
$GPRMC,023558.236,A,5232.095,N,01322.299,E,000.0,000.0,050221,000.0,W*7A
$GPGGA,023559.236,5232.095,N,01322.299,E,1,12,1.0,0.0,M,0.0,M,,*6B
$GPGSA,A,3,01,02,03,04,05,06,07,08,09,10,11,12,1.0,1.0,1.0*30
$GPRMC,023559.236,A,5232.095,N,01322.299,E,000.0,000.0,050221,000.0,W*7B
$GPGGA,023600.236,5232.095,N,01322.299,E,1,12,1.0,0.0,M,0.0,M,,*64
$GPGSA,A,3,01,02,03,04,05,06,07,08,09,10,11,12,1.0,1.0,1.0*30
$GPRMC,023600.236,A,5232.095,N,01322.299,E,000.0,000.0,050221,000.0,W*74
$GPGGA,023601.236,5232.095,N,01322.299,E,1,12,1.0,0.0,M,0.0,M,,*65
$GPGSA,A,3,01,02,03,04,05,06,07,08,09,10,11,12,1.0,1.0,1.0*30
$GPRMC,023601.236,A,5232.095,N,01322.299,E,000.0,000.0,050221,000.0,W*75
$GPGGA,023602.236,5232.095,N,01322.299,E,1,12,1.0,0.0,M,0.0,M,,*66
$GPGSA,A,3,01,02,03,04,05,06,07,08,09,10,11,12,1.0,1.0,1.0*30
$GPRMC,023602.236,A,5232.095,N,01322.299,E,000.0,000.0,050221,000.0,W*76
$GPGGA,023603.236,5232.095,N,01322.299,E,1,12,1.0,0.0,M,0.0,M,,*67
$GPGSA,A,3,01,02,03,04,05,06,07,08,09,10,11,12,1.0,1.0,1.0*30
$GPRMC,023603.236,A,5232.095,N,01322.299,E,000.0,000.0,050221,000.0,W*77
$GPGGA,023604.236,5232.095,N,01322.299,E,1,12,1.0,0.0,M,0.0,M,,*60
$GPGSA,A,3,01,02,03,04,05,06,07,08,09,10,11,12,1.0,1.0,1.0*30
$GPRMC,023604.236,A,5232.095,N,01322.299,E,000.0,000.0,050221,000.0,W*70
$GPGGA,023605.236,5232.095,N,01322.299,E,1,12,1.0,0.0,M,0.0,M,,*61
$GPGSA,A,3,01,02,03,04,05,06,07,08,09,10,11,12,1.0,1.0,1.0*30
$GPRMC,023605.236,A,5232.095,N,01322.299,E,000.0,000.0,050221,000.0,W*71
$GPGGA,023606.236,5232.095,N,01322.299,E,1,12,1.0,0.0,M,0.0,M,,*62
$GPGSA,A,3,01,02,03,04,05,06,07,08,09,10,11,12,1.0,1.0,1.0*30
$GPRMC,023606.236,A,5232.095,N,01322.299,E,000.0,000.0,050221,000.0,W*72
$GPGGA,023607.236,5232.095,N,01322.299,E,1,12,1.0,0.0,M,0.0,M,,*63
$GPGSA,A,3,01,02,03,04,05,06,07,08,09,10,11,12,1.0,1.0,1.0*30
$GPRMC,023607.236,A,5232.095,N,01322.299,E,000.0,000.0,050221,000.0,W*73
$GPGGA,023608.236,5232.095,N,01322.299,E,1,12,1.0,0.0,M,0.0,M,,*6C
$GPGSA,A,3,01,02,03,04,05,06,07,08,09,10,11,12,1.0,1.0,1.0*30
$GPRMC,023608.236,A,5232.095,N,01322.299,E,000.0,000.0,050221,000.0,W*7C
$GPGGA,023609.236,5232.095,N,01322.299,E,1,12,1.0,0.0,M,0.0,M,,*6D
$GPGSA,A,3,01,02,03,04,05,06,07,08,09,10,11,12,1.0,1.0,1.0*30
$GPRMC,023609.236,A,5232.095,N,01322.299,E,000.0,000.0,050221,000.0,W*7D
$GPGGA,023610.236,5232.095,N,01322.299,E,1,12,1.0,0.0,M,0.0,M,,*65
$GPGSA,A,3,01,02,03,04,05,06,07,08,09,10,11,12,1.0,1.0,1.0*30
$GPRMC,023610.236,A,5232.095,N,01322.299,E,000.0,000.0,050221,000.0,W*75
$GPGGA,023611.236,5232.095,N,01322.299,E,1,12,1.0,0.0,M,0.0,M,,*64
$GPGSA,A,3,01,02,03,04,05,06,07,08,09,10,11,12,1.0,1.0,1.0*30
$GPRMC,023611.236,A,5232.095,N,01322.299,E,000.0,000.0,050221,000.0,W*74
$GPGGA,023612.236,5232.095,N,01322.299,E,1,12,1.0,0.0,M,0.0,M,,*67
$GPGSA,A,3,01,02,03,04,05,06,07,08,09,10,11,12,1.0,1.0,1.0*30
$GPRMC,023612.236,A,5232.095,N,01322.299,E,000.0,000.0,050221,000.0,W*77
$GPGGA,023613.236,5232.095,N,01322.299,E,1,12,1.0,0.0,M,0.0,M,,*66
$GPGSA,A,3,01,02,03,04,05,06,07,08,09,10,11,12,1.0,1.0,1.0*30
$GPRMC,023613.236,A,5232.095,N,01322.299,E,000.0,000.0,050221,000.0,W*76
